{"business_id":"0DI8Dt2PJp07XkVvIElIcQ","name":"Innovative Vapors","neighborhood":"","address":"227 E Baseline Rd, Ste J2","city":"Tempe","state":"AZ","postal_code":"85283","latitude":33.3782141,"longitude":-111.936102,"stars":4.5,"review_count":17,"is_open":0,"attributes":["BikeParking: True","BusinessAcceptsBitcoin: False","BusinessAcceptsCreditCards: True","BusinessParking: {'garage': False, 'street': False, 'validated': False, 'lot': True, 'valet': False}","DogsAllowed: False","RestaurantsPriceRange2: 2","WheelchairAccessible: True"],"categories":["Tobacco Shops","Nightlife","Vape Shops","Shopping"],"hours":["Monday 11:0-21:0","Tuesday 11:0-21:0","Wednesday 11:0-21:0","Thursday 11:0-21:0","Friday 11:0-22:0","Saturday 10:0-22:0","Sunday 11:0-18:0"],"type":"business"}
{"business_id":"LTlCaCGZE14GuaUXUGbamg","name":"Cut and Taste","neighborhood":"","address":"495 S Grand Central Pkwy","city":"Las Vegas","state":"NV","postal_code":"89106","latitude":36.1922841,"longitude":-115.1592718,"stars":5.0,"review_count":9,"is_open":1,"attributes":["BusinessAcceptsBitcoin: False","BusinessAcceptsCreditCards: True"],"categories":["Caterers","Grocery","Food","Event Planning & Services","Party & Event Planning","Specialty Food"],"hours":["Monday 0:0-0:0","Tuesday 0:0-0:0","Wednesday 0:0-0:0","Thursday 0:0-0:0","Friday 0:0-0:0","Saturday 0:0-0:0","Sunday 0:0-0:0"],"type":"business"}
{"business_id":"EDqCEAGXVGCH4FJXgqtjqg","name":"Pizza Pizza","neighborhood":"Dufferin Grove","address":"979 Bloor Street W","city":"Toronto","state":"ON","postal_code":"M6H 1L5","latitude":43.661054,"longitude":-79.429089,"stars":2.5,"review_count":7,"is_open":1,"attributes":["Alcohol: none","Ambience: {'romantic': False, 'intimate': False, 'classy': False, 'hipster': False, 'touristy': False, 'trendy': False, 'upscale': False, 'casual': False}","BikeParking: True","BusinessAcceptsCreditCards: True","BusinessParking: {'garage': False, 'street': False, 'validated': False, 'lot': False, 'valet': False}","Caters: True","GoodForKids: True","GoodForMeal: {'dessert': False, 'latenight': False, 'lunch': False, 'dinner': False, 'breakfast': False, 'brunch': False}","HasTV: True","NoiseLevel: quiet","OutdoorSeating: False","RestaurantsAttire: casual","RestaurantsDelivery: True","RestaurantsGoodForGroups: True","RestaurantsPriceRange2: 1","RestaurantsReservations: False","RestaurantsTableService: False","RestaurantsTakeOut: True","WiFi: free"],"categories":["Restaurants","Pizza","Chicken Wings","Italian"],"hours":["Monday 11:0-2:0","Tuesday 11:0-2:0","Wednesday 11:0-2:0","Thursday 11:0-3:0","Friday 11:0-3:0","Saturday 11:0-3:0","Sunday 11:0-2:0"],"type":"business"}
